[
  {
    "id": 1100,
    "name": "Ekofarma Olešná",
    "loc": "Jihočeský kraj",
    "type": "bio",
    "lat": 49.001284,
    "lng": 14.482254,
    "emoji": "🌱",
    "rating": 4,
    "open": null,
    "bio": true,
    "dist": "—",
    "hours": "Ověřte telefonicky",
    "phone": null,
    "website": null,
    "email": null,
    "products": [],
    "description": "Ekofarma Olešná — Jihočeský kraj.",
    "delivery": false,
    "eshop": false,
    "verified": false,
    "source": "manual"
  },
  {
    "id": 1101,
    "name": "Farma u Miklasů",
    "loc": "Radomyšl",
    "type": "veggie",
    "lat": 49.250267,
    "lng": 13.985077,
    "emoji": "🥕",
    "rating": 4,
    "open": null,
    "bio": false,
    "dist": "—",
    "hours": "Ověřte telefonicky",
    "phone": null,
    "website": null,
    "email": null,
    "products": [],
    "description": "Farma u Miklasů — Radomyšl.",
    "delivery": false,
    "eshop": false,
    "verified": false,
    "source": "manual"
  },
  {
    "id": 1102,
    "name": "Rodinná farma Čunát",
    "loc": "Jihočeský kraj",
    "type": "meat",
    "lat": 48.981574,
    "lng": 14.488784,
    "emoji": "🥩",
    "rating": 4,
    "open": null,
    "bio": false,
    "dist": "—",
    "hours": "Ověřte telefonicky",
    "phone": null,
    "website": null,
    "email": null,
    "products": [],
    "description": "Rodinná farma Čunát — Jihočeský kraj.",
    "delivery": false,
    "eshop": false,
    "verified": false,
    "source": "manual"
  },
  {
    "id": 1103,
    "name": "Minimlékárna Mláka",
    "loc": "Jihočeský kraj",
    "type": "dairy",
    "lat": 48.994619,
    "lng": 14.490744,
    "emoji": "🥛",
    "rating": 4,
    "open": null,
    "bio": false,
    "dist": "—",
    "hours": "Ověřte telefonicky",
    "phone": null,
    "website": null,
    "email": null,
    "products": [],
    "description": "Minimlékárna Mláka — Jihočeský kraj.",
    "delivery": false,
    "eshop": false,
    "verified": false,
    "source": "manual"
  },
  {
    "id": 1104,
    "name": "Včelařství Mikšátko",
    "loc": "Jihočeský kraj",
    "type": "honey",
    "lat": 49.00537,
    "lng": 14.519885,
    "emoji": "🍯",
    "rating": 4,
    "open": null,
    "bio": false,
    "dist": "—",
    "hours": "Ověřte telefonicky",
    "phone": null,
    "website": null,
    "email": null,
    "products": [],
    "description": "Včelařství Mikšátko — Jihočeský kraj.",
    "delivery": false,
    "eshop": false,
    "verified": false,
    "source": "manual"
  },
  {
    "id": 1105,
    "name": "Vinařství Firla v Koutech",
    "loc": "Jihočeský kraj",
    "type": "wine",
    "lat": 49.001072,
    "lng": 14.480828,
    "emoji": "🍷",
    "rating": 4,
    "open": null,
    "bio": false,
    "dist": "—",
    "hours": "Ověřte telefonicky",
    "phone": null,
    "website": null,
    "email": null,
    "products": [],
    "description": "Vinařství Firla v Koutech — Jihočeský kraj.",
    "delivery": false,
    "eshop": false,
    "verified": false,
    "source": "manual"
  },
  {
    "id": 1106,
    "name": "Kouzelné bylinky",
    "loc": "Český Krumlov",
    "type": "herbs",
    "lat": 48.821763,
    "lng": 14.298509,
    "emoji": "🌿",
    "rating": 4,
    "open": null,
    "bio": false,
    "dist": "—",
    "hours": "Ověřte telefonicky",
    "phone": null,
    "website": null,
    "email": null,
    "products": [],
    "description": "Kouzelné bylinky — Český Krumlov.",
    "delivery": false,
    "eshop": false,
    "verified": false,
    "source": "manual"
  },
  {
    "id": 1107,
    "name": "Farma Ptýrov",
    "loc": "Jihočeský kraj",
    "type": "market",
    "lat": 49.01241,
    "lng": 14.483051,
    "emoji": "🛒",
    "rating": 4,
    "open": null,
    "bio": false,
    "dist": "—",
    "hours": "Ověřte telefonicky",
    "phone": null,
    "website": null,
    "email": null,
    "products": [],
    "description": "Farma Ptýrov — Jihočeský kraj.",
    "delivery": false,
    "eshop": false,
    "verified": false,
    "source": "manual"
  },
  {
    "id": 1108,
    "name": "Farma u Bychů",
    "loc": "Jihočeský kraj",
    "type": "zerowaste",
    "lat": 49.015851,
    "lng": 14.496431,
    "emoji": "♻️",
    "rating": 4,
    "open": null,
    "bio": false,
    "dist": "—",
    "hours": "Ověřte telefonicky",
    "phone": null,
    "website": null,
    "email": null,
    "products": [],
    "description": "Farma u Bychů — Jihočeský kraj.",
    "delivery": false,
    "eshop": false,
    "verified": false,
    "source": "manual"
  },
  {
    "id": 1109,
    "name": "Farma u Štěpána",
    "loc": "Jihočeský kraj",
    "type": "agro",
    "lat": 49.003256,
    "lng": 14.504515,
    "emoji": "🏡",
    "rating": 4,
    "open": null,
    "bio": false,
    "dist": "—",
    "hours": "Ověřte telefonicky",
    "phone": null,
    "website": null,
    "email": null,
    "products": [],
    "description": "Farma u Štěpána — Jihočeský kraj.",
    "delivery": false,
    "eshop": false,
    "verified": false,
    "source": "manual"
  },
  {
    "id": 1110,
    "name": "Farma Javorník",
    "loc": "Jihomoravský kraj",
    "type": "bio",
    "lat": 49.012275,
    "lng": 16.587193,
    "emoji": "🌱",
    "rating": 4,
    "open": null,
    "bio": true,
    "dist": "—",
    "hours": "Ověřte telefonicky",
    "phone": null,
    "website": null,
    "email": null,
    "products": [],
    "description": "Farma Javorník — Jihomoravský kraj.",
    "delivery": false,
    "eshop": false,
    "verified": false,
    "source": "manual"
  },
  {
    "id": 1111,
    "name": "Sady Patria",
    "loc": "Kobylí",
    "type": "veggie",
    "lat": 48.920844,
    "lng": 16.879949,
    "emoji": "🥕",
    "rating": 4,
    "open": null,
    "bio": false,
    "dist": "—",
    "hours": "Ověřte telefonicky",
    "phone": null,
    "website": null,
    "email": null,
    "products": [],
    "description": "Sady Patria — Kobylí.",
    "delivery": false,
    "eshop": false,
    "verified": false,
    "source": "manual"
  },
  {
    "id": 1112,
    "name": "Farma u Tří dubů",
    "loc": "Jihomoravský kraj",
    "type": "veggie",
    "lat": 49.001075,
    "lng": 16.613067,
    "emoji": "🥕",
    "rating": 4,
    "open": null,
    "bio": false,
    "dist": "—",
    "hours": "Ověřte telefonicky",
    "phone": null,
    "website": null,
    "email": null,
    "products": [],
    "description": "Farma u Tří dubů — Jihomoravský kraj.",
    "delivery": false,
    "eshop": false,
    "verified": false,
    "source": "manual"
  },
  {
    "id": 1113,
    "name": "Horňácká farma",
    "loc": "Hrubá Vrbka",
    "type": "veggie",
    "lat": 48.870031,
    "lng": 17.478971,
    "emoji": "🥕",
    "rating": 4,
    "open": null,
    "bio": false,
    "dist": "—",
    "hours": "Ověřte telefonicky",
    "phone": null,
    "website": null,
    "email": null,
    "products": [],
    "description": "Horňácká farma — Hrubá Vrbka.",
    "delivery": false,
    "eshop": false,
    "verified": false,
    "source": "manual"
  },
  {
    "id": 1114,
    "name": "Šnečí farma Vlkoš",
    "loc": "Vlkoš",
    "type": "meat",
    "lat": 49.032168,
    "lng": 17.234139,
    "emoji": "🥩",
    "rating": 4,
    "open": null,
    "bio": false,
    "dist": "—",
    "hours": "Ověřte telefonicky",
    "phone": null,
    "website": null,
    "email": null,
    "products": [],
    "description": "Šnečí farma Vlkoš — Vlkoš.",
    "delivery": false,
    "eshop": false,
    "verified": false,
    "source": "manual"
  },
  {
    "id": 1115,
    "name": "Farma Amálka",
    "loc": "Rájec-Jestřebí",
    "type": "meat",
    "lat": 49.406686,
    "lng": 16.662724,
    "emoji": "🥩",
    "rating": 4,
    "open": null,
    "bio": false,
    "dist": "—",
    "hours": "Ověřte telefonicky",
    "phone": null,
    "website": null,
    "email": null,
    "products": [],
    "description": "Farma Amálka — Rájec-Jestřebí.",
    "delivery": false,
    "eshop": false,
    "verified": false,
    "source": "manual"
  },
  {
    "id": 1116,
    "name": "Farma Zelenka",
    "loc": "Židlochovice",
    "type": "meat",
    "lat": 49.02455,
    "lng": 16.621172,
    "emoji": "🥩",
    "rating": 4,
    "open": null,
    "bio": false,
    "dist": "—",
    "hours": "Ověřte telefonicky",
    "phone": null,
    "website": null,
    "email": null,
    "products": [],
    "description": "Farma Zelenka — Židlochovice.",
    "delivery": false,
    "eshop": false,
    "verified": false,
    "source": "manual"
  },
  {
    "id": 1117,
    "name": "Farma Hranáč",
    "loc": "Nemojany",
    "type": "meat",
    "lat": 49.357887,
    "lng": 17.025735,
    "emoji": "🥩",
    "rating": 4,
    "open": null,
    "bio": false,
    "dist": "—",
    "hours": "Ověřte telefonicky",
    "phone": null,
    "website": null,
    "email": null,
    "products": [],
    "description": "Farma Hranáč — Nemojany.",
    "delivery": false,
    "eshop": false,
    "verified": false,
    "source": "manual"
  },
  {
    "id": 1118,
    "name": "Pštrosí farma Doubravice",
    "loc": "Doubravice nad Svitavou",
    "type": "meat",
    "lat": 49.469685,
    "lng": 16.618561,
    "emoji": "🥩",
    "rating": 4,
    "open": null,
    "bio": false,
    "dist": "—",
    "hours": "Ověřte telefonicky",
    "phone": null,
    "website": null,
    "email": null,
    "products": [],
    "description": "Pštrosí farma Doubravice — Doubravice nad Svitavou.",
    "delivery": false,
    "eshop": false,
    "verified": false,
    "source": "manual"
  },
  {
    "id": 1119,
    "name": "Farma dojných a kašmírských koz",
    "loc": "Šošůvka",
    "type": "dairy",
    "lat": 49.383272,
    "lng": 16.733924,
    "emoji": "🥛",
    "rating": 4,
    "open": null,
    "bio": false,
    "dist": "—",
    "hours": "Ověřte telefonicky",
    "phone": null,
    "website": null,
    "email": null,
    "products": [],
    "description": "Farma dojných a kašmírských koz — Šošůvka.",
    "delivery": false,
    "eshop": false,
    "verified": false,
    "source": "manual"
  },
  {
    "id": 1120,
    "name": "Farma Pálava",
    "loc": "Mikulov",
    "type": "dairy",
    "lat": 48.821135,
    "lng": 16.652976,
    "emoji": "🥛",
    "rating": 4,
    "open": null,
    "bio": false,
    "dist": "—",
    "hours": "Ověřte telefonicky",
    "phone": null,
    "website": null,
    "email": null,
    "products": [],
    "description": "Farma Pálava — Mikulov.",
    "delivery": false,
    "eshop": false,
    "verified": false,
    "source": "manual"
  },
  {
    "id": 1121,
    "name": "Farma Ovčí terasy",
    "loc": "Němčičky",
    "type": "dairy",
    "lat": 49.008306,
    "lng": 16.909511,
    "emoji": "🥛",
    "rating": 4,
    "open": null,
    "bio": false,
    "dist": "—",
    "hours": "Ověřte telefonicky",
    "phone": null,
    "website": null,
    "email": null,
    "products": [],
    "description": "Farma Ovčí terasy — Němčičky.",
    "delivery": false,
    "eshop": false,
    "verified": false,
    "source": "manual"
  },
  {
    "id": 1122,
    "name": "Davidova ekologická včelí farma",
    "loc": "Jihomoravský kraj",
    "type": "honey",
    "lat": 48.980533,
    "lng": 16.59977,
    "emoji": "🍯",
    "rating": 4,
    "open": null,
    "bio": false,
    "dist": "—",
    "hours": "Ověřte telefonicky",
    "phone": null,
    "website": null,
    "email": null,
    "products": [],
    "description": "Davidova ekologická včelí farma — Jihomoravský kraj.",
    "delivery": false,
    "eshop": false,
    "verified": false,
    "source": "manual"
  },
  {
    "id": 1123,
    "name": "Mel Regnum",
    "loc": "Morkůvky",
    "type": "honey",
    "lat": 48.977829,
    "lng": 17.045915,
    "emoji": "🍯",
    "rating": 4,
    "open": null,
    "bio": false,
    "dist": "—",
    "hours": "Ověřte telefonicky",
    "phone": null,
    "website": null,
    "email": null,
    "products": [],
    "description": "Mel Regnum — Morkůvky.",
    "delivery": false,
    "eshop": false,
    "verified": false,
    "source": "manual"
  },
  {
    "id": 1124,
    "name": "Levandulová farma Starovičky",
    "loc": "Starovičky",
    "type": "herbs",
    "lat": 48.945272,
    "lng": 16.753697,
    "emoji": "🌿",
    "rating": 4,
    "open": null,
    "bio": false,
    "dist": "—",
    "hours": "Ověřte telefonicky",
    "phone": null,
    "website": null,
    "email": null,
    "products": [],
    "description": "Levandulová farma Starovičky — Starovičky.",
    "delivery": false,
    "eshop": false,
    "verified": false,
    "source": "manual"
  },
  {
    "id": 1125,
    "name": "Konopná farma Vranč",
    "loc": "Bítov",
    "type": "herbs",
    "lat": 48.892815,
    "lng": 15.718516,
    "emoji": "🌿",
    "rating": 4,
    "open": null,
    "bio": false,
    "dist": "—",
    "hours": "Ověřte telefonicky",
    "phone": null,
    "website": null,
    "email": null,
    "products": [],
    "description": "Konopná farma Vranč — Bítov.",
    "delivery": false,
    "eshop": false,
    "verified": false,
    "source": "manual"
  },
  {
    "id": 1126,
    "name": "AGRO Stošíkovice",
    "loc": "Znojmo",
    "type": "market",
    "lat": 48.867427,
    "lng": 16.043868,
    "emoji": "🛒",
    "rating": 4,
    "open": null,
    "bio": false,
    "dist": "—",
    "hours": "Ověřte telefonicky",
    "phone": null,
    "website": null,
    "email": null,
    "products": [],
    "description": "AGRO Stošíkovice — Znojmo.",
    "delivery": false,
    "eshop": false,
    "verified": false,
    "source": "manual"
  },
  {
    "id": 1127,
    "name": "Farma Noe",
    "loc": "Březina",
    "type": "agro",
    "lat": 49.400018,
    "lng": 16.705577,
    "emoji": "🏡",
    "rating": 4,
    "open": null,
    "bio": false,
    "dist": "—",
    "hours": "Ověřte telefonicky",
    "phone": null,
    "website": null,
    "email": null,
    "products": [],
    "description": "Farma Noe — Březina.",
    "delivery": false,
    "eshop": false,
    "verified": false,
    "source": "manual"
  },
  {
    "id": 1128,
    "name": "Farma Ovčí terasy Němčičky",
    "loc": "Němčičky",
    "type": "agro",
    "lat": 49.030286,
    "lng": 16.917453,
    "emoji": "🏡",
    "rating": 4,
    "open": null,
    "bio": false,
    "dist": "—",
    "hours": "Ověřte telefonicky",
    "phone": null,
    "website": null,
    "email": null,
    "products": [],
    "description": "Farma Ovčí terasy Němčičky — Němčičky.",
    "delivery": false,
    "eshop": false,
    "verified": false,
    "source": "manual"
  },
  {
    "id": 1129,
    "name": "Farma Květomluva",
    "loc": "Vlachovice",
    "type": "bio",
    "lat": 49.090043,
    "lng": 17.855653,
    "emoji": "🌱",
    "rating": 4,
    "open": null,
    "bio": true,
    "dist": "—",
    "hours": "Ověřte telefonicky",
    "phone": null,
    "website": null,
    "email": null,
    "products": [],
    "description": "Farma Květomluva — Vlachovice.",
    "delivery": false,
    "eshop": false,
    "verified": false,
    "source": "manual"
  },
  {
    "id": 1130,
    "name": "Farma Kudlov",
    "loc": "Zlín",
    "type": "bio",
    "lat": 49.20601,
    "lng": 17.659491,
    "emoji": "🌱",
    "rating": 4,
    "open": null,
    "bio": true,
    "dist": "—",
    "hours": "Ověřte telefonicky",
    "phone": null,
    "website": null,
    "email": null,
    "products": [],
    "description": "Farma Kudlov — Zlín.",
    "delivery": false,
    "eshop": false,
    "verified": false,
    "source": "manual"
  },
  {
    "id": 1131,
    "name": "Biofarma Miroslav Horut",
    "loc": "Rožnov pod Radhoštěm",
    "type": "bio",
    "lat": 49.453678,
    "lng": 18.158726,
    "emoji": "🌱",
    "rating": 4,
    "open": null,
    "bio": true,
    "dist": "—",
    "hours": "Ověřte telefonicky",
    "phone": null,
    "website": null,
    "email": null,
    "products": [],
    "description": "Biofarma Miroslav Horut — Rožnov pod Radhoštěm.",
    "delivery": false,
    "eshop": false,
    "verified": false,
    "source": "manual"
  },
  {
    "id": 1132,
    "name": "Lukrum Buchlovice",
    "loc": "Buchlovice",
    "type": "veggie",
    "lat": 49.097995,
    "lng": 17.385662,
    "emoji": "🥕",
    "rating": 4,
    "open": null,
    "bio": false,
    "dist": "—",
    "hours": "Ověřte telefonicky",
    "phone": null,
    "website": null,
    "email": null,
    "products": [],
    "description": "Lukrum Buchlovice — Buchlovice.",
    "delivery": false,
    "eshop": false,
    "verified": false,
    "source": "manual"
  },
  {
    "id": 1133,
    "name": "Ovocné sady Žlutava",
    "loc": "Žlutava",
    "type": "veggie",
    "lat": 49.175016,
    "lng": 17.565086,
    "emoji": "🥕",
    "rating": 4,
    "open": null,
    "bio": false,
    "dist": "—",
    "hours": "Ověřte telefonicky",
    "phone": null,
    "website": null,
    "email": null,
    "products": [],
    "description": "Ovocné sady Žlutava — Žlutava.",
    "delivery": false,
    "eshop": false,
    "verified": false,
    "source": "manual"
  },
  {
    "id": 1134,
    "name": "Rodinná farma Trhlíkovi",
    "loc": "Holešov",
    "type": "veggie",
    "lat": 49.349941,
    "lng": 17.579391,
    "emoji": "🥕",
    "rating": 4,
    "open": null,
    "bio": false,
    "dist": "—",
    "hours": "Ověřte telefonicky",
    "phone": null,
    "website": null,
    "email": null,
    "products": [],
    "description": "Rodinná farma Trhlíkovi — Holešov.",
    "delivery": false,
    "eshop": false,
    "verified": false,
    "source": "manual"
  },
  {
    "id": 1135,
    "name": "Jahodárna Huštěnovice",
    "loc": "Huštěnovice",
    "type": "veggie",
    "lat": 49.095276,
    "lng": 17.492902,
    "emoji": "🥕",
    "rating": 4,
    "open": null,
    "bio": false,
    "dist": "—",
    "hours": "Ověřte telefonicky",
    "phone": null,
    "website": null,
    "email": null,
    "products": [],
    "description": "Jahodárna Huštěnovice — Huštěnovice.",
    "delivery": false,
    "eshop": false,
    "verified": false,
    "source": "manual"
  },
  {
    "id": 1136,
    "name": "Borůvková farma Provodov",
    "loc": "Provodov",
    "type": "veggie",
    "lat": 49.138594,
    "lng": 17.812409,
    "emoji": "🥕",
    "rating": 4,
    "open": null,
    "bio": false,
    "dist": "—",
    "hours": "Ověřte telefonicky",
    "phone": null,
    "website": null,
    "email": null,
    "products": [],
    "description": "Borůvková farma Provodov — Provodov.",
    "delivery": false,
    "eshop": false,
    "verified": false,
    "source": "manual"
  },
  {
    "id": 1137,
    "name": "Farma Machů",
    "loc": "Kostelec u Zlína",
    "type": "veggie",
    "lat": 49.184534,
    "lng": 17.79411,
    "emoji": "🥕",
    "rating": 4,
    "open": null,
    "bio": false,
    "dist": "—",
    "hours": "Ověřte telefonicky",
    "phone": null,
    "website": null,
    "email": null,
    "products": [],
    "description": "Farma Machů — Kostelec u Zlína.",
    "delivery": false,
    "eshop": false,
    "verified": false,
    "source": "manual"
  },
  {
    "id": 1138,
    "name": "Krůtí farma Dušná",
    "loc": "Růžďka",
    "type": "meat",
    "lat": 49.388333,
    "lng": 18.097865,
    "emoji": "🥩",
    "rating": 4,
    "open": null,
    "bio": false,
    "dist": "—",
    "hours": "Ověřte telefonicky",
    "phone": null,
    "website": null,
    "email": null,
    "products": [],
    "description": "Krůtí farma Dušná — Růžďka.",
    "delivery": false,
    "eshop": false,
    "verified": false,
    "source": "manual"
  },
  {
    "id": 1139,
    "name": "Kozí farma Vizovice",
    "loc": "Vizovice",
    "type": "meat",
    "lat": 49.215226,
    "lng": 17.863486,
    "emoji": "🥩",
    "rating": 4,
    "open": null,
    "bio": false,
    "dist": "—",
    "hours": "Ověřte telefonicky",
    "phone": null,
    "website": null,
    "email": null,
    "products": [],
    "description": "Kozí farma Vizovice — Vizovice.",
    "delivery": false,
    "eshop": false,
    "verified": false,
    "source": "manual"
  },
  {
    "id": 1140,
    "name": "Goat Farm Zerlina",
    "loc": "Rožnov pod Radhoštěm",
    "type": "dairy",
    "lat": 49.477549,
    "lng": 18.146499,
    "emoji": "🥛",
    "rating": 4,
    "open": null,
    "bio": false,
    "dist": "—",
    "hours": "Ověřte telefonicky",
    "phone": null,
    "website": null,
    "email": null,
    "products": [],
    "description": "Goat Farm Zerlina — Rožnov pod Radhoštěm.",
    "delivery": false,
    "eshop": false,
    "verified": false,
    "source": "manual"
  },
  {
    "id": 1141,
    "name": "Včelí farma Sedlákovi",
    "loc": "Uherský Brod",
    "type": "honey",
    "lat": 48.96815,
    "lng": 17.652046,
    "emoji": "🍯",
    "rating": 4,
    "open": null,
    "bio": false,
    "dist": "—",
    "hours": "Ověřte telefonicky",
    "phone": null,
    "website": null,
    "email": null,
    "products": [],
    "description": "Včelí farma Sedlákovi — Uherský Brod.",
    "delivery": false,
    "eshop": false,
    "verified": false,
    "source": "manual"
  },
  {
    "id": 1142,
    "name": "Včelí farma Medík",
    "loc": "Žlutava",
    "type": "honey",
    "lat": 49.173227,
    "lng": 17.531544,
    "emoji": "🍯",
    "rating": 4,
    "open": null,
    "bio": false,
    "dist": "—",
    "hours": "Ověřte telefonicky",
    "phone": null,
    "website": null,
    "email": null,
    "products": [],
    "description": "Včelí farma Medík — Žlutava.",
    "delivery": false,
    "eshop": false,
    "verified": false,
    "source": "manual"
  },
  {
    "id": 1143,
    "name": "Rodinné vinařství Mikulenkovi",
    "loc": "Uherské Hradiště",
    "type": "wine",
    "lat": 49.063277,
    "lng": 17.468575,
    "emoji": "🍷",
    "rating": 4,
    "open": null,
    "bio": false,
    "dist": "—",
    "hours": "Ověřte telefonicky",
    "phone": null,
    "website": null,
    "email": null,
    "products": [],
    "description": "Rodinné vinařství Mikulenkovi — Uherské Hradiště.",
    "delivery": false,
    "eshop": false,
    "verified": false,
    "source": "manual"
  },
  {
    "id": 1144,
    "name": "Levandulová farma Strání",
    "loc": "Strání",
    "type": "herbs",
    "lat": 48.859723,
    "lng": 17.735853,
    "emoji": "🌿",
    "rating": 4,
    "open": null,
    "bio": false,
    "dist": "—",
    "hours": "Ověřte telefonicky",
    "phone": null,
    "website": null,
    "email": null,
    "products": [],
    "description": "Levandulová farma Strání — Strání.",
    "delivery": false,
    "eshop": false,
    "verified": false,
    "source": "manual"
  },
  {
    "id": 1145,
    "name": "Biofarma Juré",
    "loc": "Lužkovice u Zlína",
    "type": "agro",
    "lat": 49.193167,
    "lng": 17.72618,
    "emoji": "🏡",
    "rating": 4,
    "open": null,
    "bio": false,
    "dist": "—",
    "hours": "Ověřte telefonicky",
    "phone": null,
    "website": null,
    "email": null,
    "products": [],
    "description": "Biofarma Juré — Lužkovice u Zlína.",
    "delivery": false,
    "eshop": false,
    "verified": false,
    "source": "manual"
  },
  {
    "id": 1146,
    "name": "Ekofarma Žlutava",
    "loc": "Žlutava u Napajedel",
    "type": "agro",
    "lat": 49.142641,
    "lng": 17.542531,
    "emoji": "🏡",
    "rating": 4,
    "open": null,
    "bio": false,
    "dist": "—",
    "hours": "Ověřte telefonicky",
    "phone": null,
    "website": null,
    "email": null,
    "products": [],
    "description": "Ekofarma Žlutava — Žlutava u Napajedel.",
    "delivery": false,
    "eshop": false,
    "verified": false,
    "source": "manual"
  },
  {
    "id": 1147,
    "name": "Biofarma Slunečná",
    "loc": "Ústecký kraj",
    "type": "bio",
    "lat": 50.604658,
    "lng": 13.918116,
    "emoji": "🌱",
    "rating": 4,
    "open": null,
    "bio": true,
    "dist": "—",
    "hours": "Ověřte telefonicky",
    "phone": null,
    "website": null,
    "email": null,
    "products": [],
    "description": "Biofarma Slunečná — Ústecký kraj.",
    "delivery": false,
    "eshop": false,
    "verified": false,
    "source": "manual"
  },
  {
    "id": 1148,
    "name": "Ekofarma Ploskovice",
    "loc": "Ploskovice",
    "type": "bio",
    "lat": 50.508363,
    "lng": 14.149664,
    "emoji": "🌱",
    "rating": 4,
    "open": null,
    "bio": true,
    "dist": "—",
    "hours": "Ověřte telefonicky",
    "phone": null,
    "website": null,
    "email": null,
    "products": [],
    "description": "Ekofarma Ploskovice — Ploskovice.",
    "delivery": false,
    "eshop": false,
    "verified": false,
    "source": "manual"
  },
  {
    "id": 1149,
    "name": "Zahrada Čech",
    "loc": "Ústecký kraj",
    "type": "veggie",
    "lat": 50.596259,
    "lng": 13.917503,
    "emoji": "🥕",
    "rating": 4,
    "open": null,
    "bio": false,
    "dist": "—",
    "hours": "Ověřte telefonicky",
    "phone": null,
    "website": null,
    "email": null,
    "products": [],
    "description": "Zahrada Čech — Ústecký kraj.",
    "delivery": false,
    "eshop": false,
    "verified": false,
    "source": "manual"
  },
  {
    "id": 1150,
    "name": "Farma Držovice",
    "loc": "Ústecký kraj",
    "type": "meat",
    "lat": 50.612078,
    "lng": 13.911449,
    "emoji": "🥩",
    "rating": 4,
    "open": null,
    "bio": false,
    "dist": "—",
    "hours": "Ověřte telefonicky",
    "phone": null,
    "website": null,
    "email": null,
    "products": [],
    "description": "Farma Držovice — Ústecký kraj.",
    "delivery": false,
    "eshop": false,
    "verified": false,
    "source": "manual"
  },
  {
    "id": 1151,
    "name": "Pštrosí farma Židovice",
    "loc": "Židovice",
    "type": "meat",
    "lat": 50.375346,
    "lng": 15.307097,
    "emoji": "🥩",
    "rating": 4,
    "open": null,
    "bio": false,
    "dist": "—",
    "hours": "Ověřte telefonicky",
    "phone": null,
    "website": null,
    "email": null,
    "products": [],
    "description": "Pštrosí farma Židovice — Židovice.",
    "delivery": false,
    "eshop": false,
    "verified": false,
    "source": "manual"
  },
  {
    "id": 1152,
    "name": "Farma Létající koza",
    "loc": "Ústecký kraj",
    "type": "dairy",
    "lat": 50.605056,
    "lng": 13.880123,
    "emoji": "🥛",
    "rating": 4,
    "open": null,
    "bio": false,
    "dist": "—",
    "hours": "Ověřte telefonicky",
    "phone": null,
    "website": null,
    "email": null,
    "products": [],
    "description": "Farma Létající koza — Ústecký kraj.",
    "delivery": false,
    "eshop": false,
    "verified": false,
    "source": "manual"
  },
  {
    "id": 1153,
    "name": "Včelařství pod Radobýlem",
    "loc": "Ústecký kraj",
    "type": "honey",
    "lat": 50.614719,
    "lng": 13.919956,
    "emoji": "🍯",
    "rating": 4,
    "open": null,
    "bio": false,
    "dist": "—",
    "hours": "Ověřte telefonicky",
    "phone": null,
    "website": null,
    "email": null,
    "products": [],
    "description": "Včelařství pod Radobýlem — Ústecký kraj.",
    "delivery": false,
    "eshop": false,
    "verified": false,
    "source": "manual"
  },
  {
    "id": 1154,
    "name": "Vinařství Johann W",
    "loc": "Ústecký kraj",
    "type": "wine",
    "lat": 50.590143,
    "lng": 13.90059,
    "emoji": "🍷",
    "rating": 4,
    "open": null,
    "bio": false,
    "dist": "—",
    "hours": "Ověřte telefonicky",
    "phone": null,
    "website": null,
    "email": null,
    "products": [],
    "description": "Vinařství Johann W — Ústecký kraj.",
    "delivery": false,
    "eshop": false,
    "verified": false,
    "source": "manual"
  },
  {
    "id": 1155,
    "name": "Levandulová farma Židovice",
    "loc": "Židovice",
    "type": "herbs",
    "lat": 50.405906,
    "lng": 15.315188,
    "emoji": "🌿",
    "rating": 4,
    "open": null,
    "bio": false,
    "dist": "—",
    "hours": "Ověřte telefonicky",
    "phone": null,
    "website": null,
    "email": null,
    "products": [],
    "description": "Levandulová farma Židovice — Židovice.",
    "delivery": false,
    "eshop": false,
    "verified": false,
    "source": "manual"
  },
  {
    "id": 1156,
    "name": "Farma Růžová",
    "loc": "Ústecký kraj",
    "type": "market",
    "lat": 50.589785,
    "lng": 13.880682,
    "emoji": "🛒",
    "rating": 4,
    "open": null,
    "bio": false,
    "dist": "—",
    "hours": "Ověřte telefonicky",
    "phone": null,
    "website": null,
    "email": null,
    "products": [],
    "description": "Farma Růžová — Ústecký kraj.",
    "delivery": false,
    "eshop": false,
    "verified": false,
    "source": "manual"
  },
  {
    "id": 1157,
    "name": "Statek Oblík",
    "loc": "Ústecký kraj",
    "type": "agro",
    "lat": 50.612172,
    "lng": 13.897679,
    "emoji": "🏡",
    "rating": 4,
    "open": null,
    "bio": false,
    "dist": "—",
    "hours": "Ověřte telefonicky",
    "phone": null,
    "website": null,
    "email": null,
    "products": [],
    "description": "Statek Oblík — Ústecký kraj.",
    "delivery": false,
    "eshop": false,
    "verified": false,
    "source": "manual"
  },
  {
    "id": 1158,
    "name": "Bio farma Sasov",
    "loc": "Sasov",
    "type": "bio",
    "lat": 49.388345,
    "lng": 15.927052,
    "emoji": "🌱",
    "rating": 4,
    "open": null,
    "bio": true,
    "dist": "—",
    "hours": "Ověřte telefonicky",
    "phone": null,
    "website": null,
    "email": null,
    "products": [],
    "description": "Bio farma Sasov — Sasov.",
    "delivery": false,
    "eshop": false,
    "verified": false,
    "source": "manual"
  },
  {
    "id": 1159,
    "name": "Bio farma Marek",
    "loc": "Častonín",
    "type": "bio",
    "lat": 49.426483,
    "lng": 15.363486,
    "emoji": "🌱",
    "rating": 4,
    "open": null,
    "bio": true,
    "dist": "—",
    "hours": "Ověřte telefonicky",
    "phone": null,
    "website": null,
    "email": null,
    "products": [],
    "description": "Bio farma Marek — Častonín.",
    "delivery": false,
    "eshop": false,
    "verified": false,
    "source": "manual"
  },
  {
    "id": 1160,
    "name": "Farma rodiny Němcovy",
    "loc": "Netín",
    "type": "meat",
    "lat": 49.434196,
    "lng": 16.016527,
    "emoji": "🥩",
    "rating": 4,
    "open": null,
    "bio": false,
    "dist": "—",
    "hours": "Ověřte telefonicky",
    "phone": null,
    "website": null,
    "email": null,
    "products": [],
    "description": "Farma rodiny Němcovy — Netín.",
    "delivery": false,
    "eshop": false,
    "verified": false,
    "source": "manual"
  },
  {
    "id": 1161,
    "name": "Farma Tasov",
    "loc": "Tasov",
    "type": "meat",
    "lat": 49.331516,
    "lng": 16.175823,
    "emoji": "🥩",
    "rating": 4,
    "open": null,
    "bio": false,
    "dist": "—",
    "hours": "Ověřte telefonicky",
    "phone": null,
    "website": null,
    "email": null,
    "products": [],
    "description": "Farma Tasov — Tasov.",
    "delivery": false,
    "eshop": false,
    "verified": false,
    "source": "manual"
  },
  {
    "id": 1162,
    "name": "Eko farma Zelené údolí",
    "loc": "Heřmanov",
    "type": "meat",
    "lat": 49.357504,
    "lng": 15.92608,
    "emoji": "🥩",
    "rating": 4,
    "open": null,
    "bio": false,
    "dist": "—",
    "hours": "Ověřte telefonicky",
    "phone": null,
    "website": null,
    "email": null,
    "products": [],
    "description": "Eko farma Zelené údolí — Heřmanov.",
    "delivery": false,
    "eshop": false,
    "verified": false,
    "source": "manual"
  },
  {
    "id": 1163,
    "name": "Farma Kočárovi králíci",
    "loc": "Litovany",
    "type": "meat",
    "lat": 49.459911,
    "lng": 15.824961,
    "emoji": "🥩",
    "rating": 4,
    "open": null,
    "bio": false,
    "dist": "—",
    "hours": "Ověřte telefonicky",
    "phone": null,
    "website": null,
    "email": null,
    "products": [],
    "description": "Farma Kočárovi králíci — Litovany.",
    "delivery": false,
    "eshop": false,
    "verified": false,
    "source": "manual"
  },
  {
    "id": 1164,
    "name": "Farma Rohozenská husa",
    "loc": "Rohozná",
    "type": "meat",
    "lat": 49.466733,
    "lng": 15.869122,
    "emoji": "🥩",
    "rating": 4,
    "open": null,
    "bio": false,
    "dist": "—",
    "hours": "Ověřte telefonicky",
    "phone": null,
    "website": null,
    "email": null,
    "products": [],
    "description": "Farma Rohozenská husa — Rohozná.",
    "delivery": false,
    "eshop": false,
    "verified": false,
    "source": "manual"
  },
  {
    "id": 1165,
    "name": "Mléčná farma Chaloupky",
    "loc": "Kraj Vysočina",
    "type": "dairy",
    "lat": 49.400436,
    "lng": 15.610104,
    "emoji": "🥛",
    "rating": 4,
    "open": null,
    "bio": false,
    "dist": "—",
    "hours": "Ověřte telefonicky",
    "phone": null,
    "website": null,
    "email": null,
    "products": [],
    "description": "Mléčná farma Chaloupky — Kraj Vysočina.",
    "delivery": false,
    "eshop": false,
    "verified": false,
    "source": "manual"
  },
  {
    "id": 1166,
    "name": "Kozí farma DoRa",
    "loc": "Ratibořice",
    "type": "dairy",
    "lat": 49.538919,
    "lng": 16.183239,
    "emoji": "🥛",
    "rating": 4,
    "open": null,
    "bio": false,
    "dist": "—",
    "hours": "Ověřte telefonicky",
    "phone": null,
    "website": null,
    "email": null,
    "products": [],
    "description": "Kozí farma DoRa — Ratibořice.",
    "delivery": false,
    "eshop": false,
    "verified": false,
    "source": "manual"
  },
  {
    "id": 1167,
    "name": "Včelařství Sedláček",
    "loc": "Kraj Vysočina",
    "type": "honey",
    "lat": 49.398236,
    "lng": 15.618039,
    "emoji": "🍯",
    "rating": 4,
    "open": null,
    "bio": false,
    "dist": "—",
    "hours": "Ověřte telefonicky",
    "phone": null,
    "website": null,
    "email": null,
    "products": [],
    "description": "Včelařství Sedláček — Kraj Vysočina.",
    "delivery": false,
    "eshop": false,
    "verified": false,
    "source": "manual"
  },
  {
    "id": 1168,
    "name": "Včelařství Pavel Mach",
    "loc": "Kraj Vysočina",
    "type": "honey",
    "lat": 49.414148,
    "lng": 15.615871,
    "emoji": "🍯",
    "rating": 4,
    "open": null,
    "bio": false,
    "dist": "—",
    "hours": "Ověřte telefonicky",
    "phone": null,
    "website": null,
    "email": null,
    "products": [],
    "description": "Včelařství Pavel Mach — Kraj Vysočina.",
    "delivery": false,
    "eshop": false,
    "verified": false,
    "source": "manual"
  },
  {
    "id": 1169,
    "name": "Vinařství Sádek",
    "loc": "Kraj Vysočina",
    "type": "wine",
    "lat": 49.407438,
    "lng": 15.606643,
    "emoji": "🍷",
    "rating": 4,
    "open": null,
    "bio": false,
    "dist": "—",
    "hours": "Ověřte telefonicky",
    "phone": null,
    "website": null,
    "email": null,
    "products": [],
    "description": "Vinařství Sádek — Kraj Vysočina.",
    "delivery": false,
    "eshop": false,
    "verified": false,
    "source": "manual"
  },
  {
    "id": 1170,
    "name": "Moštárna Hostěnín",
    "loc": "Hostěnín",
    "type": "wine",
    "lat": 49.061922,
    "lng": 15.685555,
    "emoji": "🍷",
    "rating": 4,
    "open": null,
    "bio": false,
    "dist": "—",
    "hours": "Ověřte telefonicky",
    "phone": null,
    "website": null,
    "email": null,
    "products": [],
    "description": "Moštárna Hostěnín — Hostěnín.",
    "delivery": false,
    "eshop": false,
    "verified": false,
    "source": "manual"
  },
  {
    "id": 1171,
    "name": "Nobilis Tilia",
    "loc": "Kraj Vysočina",
    "type": "herbs",
    "lat": 49.385499,
    "lng": 15.586625,
    "emoji": "🌿",
    "rating": 4,
    "open": null,
    "bio": false,
    "dist": "—",
    "hours": "Ověřte telefonicky",
    "phone": null,
    "website": null,
    "email": null,
    "products": [],
    "description": "Nobilis Tilia — Kraj Vysočina.",
    "delivery": false,
    "eshop": false,
    "verified": false,
    "source": "manual"
  },
  {
    "id": 1172,
    "name": "Statek u Prokopů",
    "loc": "Kraj Vysočina",
    "type": "agro",
    "lat": 49.385791,
    "lng": 15.619655,
    "emoji": "🏡",
    "rating": 4,
    "open": null,
    "bio": false,
    "dist": "—",
    "hours": "Ověřte telefonicky",
    "phone": null,
    "website": null,
    "email": null,
    "products": [],
    "description": "Statek u Prokopů — Kraj Vysočina.",
    "delivery": false,
    "eshop": false,
    "verified": false,
    "source": "manual"
  },
  {
    "id": 1173,
    "name": "Farma Stonava",
    "loc": "Stonava",
    "type": "bio",
    "lat": 49.835983,
    "lng": 18.487077,
    "emoji": "🌱",
    "rating": 4,
    "open": null,
    "bio": true,
    "dist": "—",
    "hours": "Ověřte telefonicky",
    "phone": null,
    "website": null,
    "email": null,
    "products": [],
    "description": "Farma Stonava — Stonava.",
    "delivery": false,
    "eshop": false,
    "verified": false,
    "source": "manual"
  },
  {
    "id": 1174,
    "name": "Zahradnictví Lička",
    "loc": "Sedlnice",
    "type": "veggie",
    "lat": 49.663572,
    "lng": 18.13927,
    "emoji": "🥕",
    "rating": 4,
    "open": null,
    "bio": false,
    "dist": "—",
    "hours": "Ověřte telefonicky",
    "phone": null,
    "website": null,
    "email": null,
    "products": [],
    "description": "Zahradnictví Lička — Sedlnice.",
    "delivery": false,
    "eshop": false,
    "verified": false,
    "source": "manual"
  },
  {
    "id": 1175,
    "name": "Krůtí farma Rychvald",
    "loc": "Rychvald",
    "type": "meat",
    "lat": 49.848658,
    "lng": 18.381222,
    "emoji": "🥩",
    "rating": 4,
    "open": null,
    "bio": false,
    "dist": "—",
    "hours": "Ověřte telefonicky",
    "phone": null,
    "website": null,
    "email": null,
    "products": [],
    "description": "Krůtí farma Rychvald — Rychvald.",
    "delivery": false,
    "eshop": false,
    "verified": false,
    "source": "manual"
  },
  {
    "id": 1176,
    "name": "Farma Menšík",
    "loc": "Kunčice pod Ondřejníkem",
    "type": "meat",
    "lat": 49.561021,
    "lng": 18.25747,
    "emoji": "🥩",
    "rating": 4,
    "open": null,
    "bio": false,
    "dist": "—",
    "hours": "Ověřte telefonicky",
    "phone": null,
    "website": null,
    "email": null,
    "products": [],
    "description": "Farma Menšík — Kunčice pod Ondřejníkem.",
    "delivery": false,
    "eshop": false,
    "verified": false,
    "source": "manual"
  },
  {
    "id": 1177,
    "name": "Farma Gručovice",
    "loc": "Gručovice",
    "type": "meat",
    "lat": 49.763245,
    "lng": 17.93786,
    "emoji": "🥩",
    "rating": 4,
    "open": null,
    "bio": false,
    "dist": "—",
    "hours": "Ověřte telefonicky",
    "phone": null,
    "website": null,
    "email": null,
    "products": [],
    "description": "Farma Gručovice — Gručovice.",
    "delivery": false,
    "eshop": false,
    "verified": false,
    "source": "manual"
  },
  {
    "id": 1178,
    "name": "Pstruží farma",
    "loc": "Moravskoslezský kraj",
    "type": "agro",
    "lat": 49.793651,
    "lng": 18.195235,
    "emoji": "🏡",
    "rating": 4,
    "open": null,
    "bio": false,
    "dist": "—",
    "hours": "Ověřte telefonicky",
    "phone": null,
    "website": null,
    "email": null,
    "products": [],
    "description": "Pstruží farma — Moravskoslezský kraj.",
    "delivery": false,
    "eshop": false,
    "verified": false,
    "source": "manual"
  },
  {
    "id": 1179,
    "name": "Farma Moulisových",
    "loc": "Milínov",
    "type": "bio",
    "lat": 49.719472,
    "lng": 13.524761,
    "emoji": "🌱",
    "rating": 4,
    "open": null,
    "bio": true,
    "dist": "—",
    "hours": "Ověřte telefonicky",
    "phone": null,
    "website": null,
    "email": null,
    "products": [],
    "description": "Farma Moulisových — Milínov.",
    "delivery": false,
    "eshop": false,
    "verified": false,
    "source": "manual"
  },
  {
    "id": 1180,
    "name": "Farma Borek",
    "loc": "Štěnovický Borek",
    "type": "bio",
    "lat": 49.681487,
    "lng": 13.36114,
    "emoji": "🌱",
    "rating": 4,
    "open": null,
    "bio": true,
    "dist": "—",
    "hours": "Ověřte telefonicky",
    "phone": null,
    "website": null,
    "email": null,
    "products": [],
    "description": "Farma Borek — Štěnovický Borek.",
    "delivery": false,
    "eshop": false,
    "verified": false,
    "source": "manual"
  },
  {
    "id": 1181,
    "name": "Ekofarma Pod Radyní",
    "loc": "Plzeňský kraj",
    "type": "bio",
    "lat": 49.695298,
    "lng": 13.381699,
    "emoji": "🌱",
    "rating": 4,
    "open": null,
    "bio": true,
    "dist": "—",
    "hours": "Ověřte telefonicky",
    "phone": null,
    "website": null,
    "email": null,
    "products": [],
    "description": "Ekofarma Pod Radyní — Plzeňský kraj.",
    "delivery": false,
    "eshop": false,
    "verified": false,
    "source": "manual"
  },
  {
    "id": 1182,
    "name": "Farma Křimice",
    "loc": "Křimice",
    "type": "veggie",
    "lat": 49.756187,
    "lng": 13.252077,
    "emoji": "🥕",
    "rating": 4,
    "open": null,
    "bio": false,
    "dist": "—",
    "hours": "Ověřte telefonicky",
    "phone": null,
    "website": null,
    "email": null,
    "products": [],
    "description": "Farma Křimice — Křimice.",
    "delivery": false,
    "eshop": false,
    "verified": false,
    "source": "manual"
  },
  {
    "id": 1183,
    "name": "Králičí farma Trnčí",
    "loc": "Plzeňský kraj",
    "type": "meat",
    "lat": 49.694089,
    "lng": 13.408899,
    "emoji": "🥩",
    "rating": 4,
    "open": null,
    "bio": false,
    "dist": "—",
    "hours": "Ověřte telefonicky",
    "phone": null,
    "website": null,
    "email": null,
    "products": [],
    "description": "Králičí farma Trnčí — Plzeňský kraj.",
    "delivery": false,
    "eshop": false,
    "verified": false,
    "source": "manual"
  },
  {
    "id": 1184,
    "name": "Farma Galloway Roupov",
    "loc": "Roupov",
    "type": "meat",
    "lat": 49.537094,
    "lng": 13.367768,
    "emoji": "🥩",
    "rating": 4,
    "open": null,
    "bio": false,
    "dist": "—",
    "hours": "Ověřte telefonicky",
    "phone": null,
    "website": null,
    "email": null,
    "products": [],
    "description": "Farma Galloway Roupov — Roupov.",
    "delivery": false,
    "eshop": false,
    "verified": false,
    "source": "manual"
  },
  {
    "id": 1185,
    "name": "Farma Loužná",
    "loc": "Plzeňský kraj",
    "type": "meat",
    "lat": 49.700556,
    "lng": 13.415339,
    "emoji": "🥩",
    "rating": 4,
    "open": null,
    "bio": false,
    "dist": "—",
    "hours": "Ověřte telefonicky",
    "phone": null,
    "website": null,
    "email": null,
    "products": [],
    "description": "Farma Loužná — Plzeňský kraj.",
    "delivery": false,
    "eshop": false,
    "verified": false,
    "source": "manual"
  },
  {
    "id": 1186,
    "name": "Farma Líšťany",
    "loc": "Líšťany",
    "type": "dairy",
    "lat": 49.808383,
    "lng": 13.286576,
    "emoji": "🥛",
    "rating": 4,
    "open": null,
    "bio": false,
    "dist": "—",
    "hours": "Ověřte telefonicky",
    "phone": null,
    "website": null,
    "email": null,
    "products": [],
    "description": "Farma Líšťany — Líšťany.",
    "delivery": false,
    "eshop": false,
    "verified": false,
    "source": "manual"
  },
  {
    "id": 1187,
    "name": "Farma Údolíčko",
    "loc": "Přimda",
    "type": "dairy",
    "lat": 49.688802,
    "lng": 12.665686,
    "emoji": "🥛",
    "rating": 4,
    "open": null,
    "bio": false,
    "dist": "—",
    "hours": "Ověřte telefonicky",
    "phone": null,
    "website": null,
    "email": null,
    "products": [],
    "description": "Farma Údolíčko — Přimda.",
    "delivery": false,
    "eshop": false,
    "verified": false,
    "source": "manual"
  },
  {
    "id": 1188,
    "name": "Ekofarma Útušice",
    "loc": "Útušice",
    "type": "dairy",
    "lat": 49.65215,
    "lng": 13.331754,
    "emoji": "🥛",
    "rating": 4,
    "open": null,
    "bio": false,
    "dist": "—",
    "hours": "Ověřte telefonicky",
    "phone": null,
    "website": null,
    "email": null,
    "products": [],
    "description": "Ekofarma Útušice — Útušice.",
    "delivery": false,
    "eshop": false,
    "verified": false,
    "source": "manual"
  },
  {
    "id": 1189,
    "name": "Vinařství Kern",
    "loc": "Břasy",
    "type": "wine",
    "lat": 49.88081,
    "lng": 13.634418,
    "emoji": "🍷",
    "rating": 4,
    "open": null,
    "bio": false,
    "dist": "—",
    "hours": "Ověřte telefonicky",
    "phone": null,
    "website": null,
    "email": null,
    "products": [],
    "description": "Vinařství Kern — Břasy.",
    "delivery": false,
    "eshop": false,
    "verified": false,
    "source": "manual"
  },
  {
    "id": 1190,
    "name": "Kotvičníková farma",
    "loc": "Sedlecko",
    "type": "herbs",
    "lat": 49.817871,
    "lng": 13.089007,
    "emoji": "🌿",
    "rating": 4,
    "open": null,
    "bio": false,
    "dist": "—",
    "hours": "Ověřte telefonicky",
    "phone": null,
    "website": null,
    "email": null,
    "products": [],
    "description": "Kotvičníková farma — Sedlecko.",
    "delivery": false,
    "eshop": false,
    "verified": false,
    "source": "manual"
  },
  {
    "id": 1191,
    "name": "Farma u Sůvy",
    "loc": "Rozvadov",
    "type": "agro",
    "lat": 49.688919,
    "lng": 12.561643,
    "emoji": "🏡",
    "rating": 4,
    "open": null,
    "bio": false,
    "dist": "—",
    "hours": "Ověřte telefonicky",
    "phone": null,
    "website": null,
    "email": null,
    "products": [],
    "description": "Farma u Sůvy — Rozvadov.",
    "delivery": false,
    "eshop": false,
    "verified": false,
    "source": "manual"
  },
  {
    "id": 1192,
    "name": "Statek u Macháčků",
    "loc": "Huntířov",
    "type": "bio",
    "lat": 50.682861,
    "lng": 15.197034,
    "emoji": "🌱",
    "rating": 4,
    "open": null,
    "bio": true,
    "dist": "—",
    "hours": "Ověřte telefonicky",
    "phone": null,
    "website": null,
    "email": null,
    "products": [],
    "description": "Statek u Macháčků — Huntířov.",
    "delivery": false,
    "eshop": false,
    "verified": false,
    "source": "manual"
  },
  {
    "id": 1193,
    "name": "Ovocnářská farma Thoř",
    "loc": "Pěnčín",
    "type": "veggie",
    "lat": 50.700237,
    "lng": 15.187435,
    "emoji": "🥕",
    "rating": 4,
    "open": null,
    "bio": false,
    "dist": "—",
    "hours": "Ověřte telefonicky",
    "phone": null,
    "website": null,
    "email": null,
    "products": [],
    "description": "Ovocnářská farma Thoř — Pěnčín.",
    "delivery": false,
    "eshop": false,
    "verified": false,
    "source": "manual"
  },
  {
    "id": 1194,
    "name": "Ovčí farma Troskovice",
    "loc": "Troskovice",
    "type": "meat",
    "lat": 50.495641,
    "lng": 15.239249,
    "emoji": "🥩",
    "rating": 4,
    "open": null,
    "bio": false,
    "dist": "—",
    "hours": "Ověřte telefonicky",
    "phone": null,
    "website": null,
    "email": null,
    "products": [],
    "description": "Ovčí farma Troskovice — Troskovice.",
    "delivery": false,
    "eshop": false,
    "verified": false,
    "source": "manual"
  },
  {
    "id": 1195,
    "name": "Farma Pěnčín",
    "loc": "Pěnčín",
    "type": "meat",
    "lat": 50.666125,
    "lng": 15.199217,
    "emoji": "🥩",
    "rating": 4,
    "open": null,
    "bio": false,
    "dist": "—",
    "hours": "Ověřte telefonicky",
    "phone": null,
    "website": null,
    "email": null,
    "products": [],
    "description": "Farma Pěnčín — Pěnčín.",
    "delivery": false,
    "eshop": false,
    "verified": false,
    "source": "manual"
  },
  {
    "id": 1196,
    "name": "Farma Natura Liberec",
    "loc": "Liberec",
    "type": "dairy",
    "lat": 50.752216,
    "lng": 15.075355,
    "emoji": "🥛",
    "rating": 4,
    "open": null,
    "bio": false,
    "dist": "—",
    "hours": "Ověřte telefonicky",
    "phone": null,
    "website": null,
    "email": null,
    "products": [],
    "description": "Farma Natura Liberec — Liberec.",
    "delivery": false,
    "eshop": false,
    "verified": false,
    "source": "manual"
  },
  {
    "id": 1197,
    "name": "Včelí farma Šteigrovi",
    "loc": "Kobyly",
    "type": "honey",
    "lat": 50.66572,
    "lng": 14.901917,
    "emoji": "🍯",
    "rating": 4,
    "open": null,
    "bio": false,
    "dist": "—",
    "hours": "Ověřte telefonicky",
    "phone": null,
    "website": null,
    "email": null,
    "products": [],
    "description": "Včelí farma Šteigrovi — Kobyly.",
    "delivery": false,
    "eshop": false,
    "verified": false,
    "source": "manual"
  },
  {
    "id": 1198,
    "name": "Vinařství Manuál",
    "loc": "Studeňany",
    "type": "wine",
    "lat": 50.519456,
    "lng": 15.090072,
    "emoji": "🍷",
    "rating": 4,
    "open": null,
    "bio": false,
    "dist": "—",
    "hours": "Ověřte telefonicky",
    "phone": null,
    "website": null,
    "email": null,
    "products": [],
    "description": "Vinařství Manuál — Studeňany.",
    "delivery": false,
    "eshop": false,
    "verified": false,
    "source": "manual"
  },
  {
    "id": 1199,
    "name": "Bylinková zahrada Levandule",
    "loc": "Dřevčice u České Lípy",
    "type": "herbs",
    "lat": 50.690312,
    "lng": 14.513383,
    "emoji": "🌿",
    "rating": 4,
    "open": null,
    "bio": false,
    "dist": "—",
    "hours": "Ověřte telefonicky",
    "phone": null,
    "website": null,
    "email": null,
    "products": [],
    "description": "Bylinková zahrada Levandule — Dřevčice u České Lípy.",
    "delivery": false,
    "eshop": false,
    "verified": false,
    "source": "manual"
  },
  {
    "id": 1200,
    "name": "Farma Lukava",
    "loc": "Semily",
    "type": "market",
    "lat": 50.588621,
    "lng": 15.315153,
    "emoji": "🛒",
    "rating": 4,
    "open": null,
    "bio": false,
    "dist": "—",
    "hours": "Ověřte telefonicky",
    "phone": null,
    "website": null,
    "email": null,
    "products": [],
    "description": "Farma Lukava — Semily.",
    "delivery": false,
    "eshop": false,
    "verified": false,
    "source": "manual"
  },
  {
    "id": 1201,
    "name": "Koňská farma Vysoká",
    "loc": "Vysoká Chrastava",
    "type": "agro",
    "lat": 50.850096,
    "lng": 14.947861,
    "emoji": "🏡",
    "rating": 4,
    "open": null,
    "bio": false,
    "dist": "—",
    "hours": "Ověřte telefonicky",
    "phone": null,
    "website": null,
    "email": null,
    "products": [],
    "description": "Koňská farma Vysoká — Vysoká Chrastava.",
    "delivery": false,
    "eshop": false,
    "verified": false,
    "source": "manual"
  },
  {
    "id": 1202,
    "name": "Farma Hucul",
    "loc": "Janova Hora",
    "type": "agro",
    "lat": 50.676308,
    "lng": 14.628867,
    "emoji": "🏡",
    "rating": 4,
    "open": null,
    "bio": false,
    "dist": "—",
    "hours": "Ověřte telefonicky",
    "phone": null,
    "website": null,
    "email": null,
    "products": [],
    "description": "Farma Hucul — Janova Hora.",
    "delivery": false,
    "eshop": false,
    "verified": false,
    "source": "manual"
  },
  {
    "id": 1203,
    "name": "Ekofarma Vohralík",
    "loc": "Pardubický kraj",
    "type": "bio",
    "lat": 49.90561,
    "lng": 15.985753,
    "emoji": "🌱",
    "rating": 4,
    "open": null,
    "bio": true,
    "dist": "—",
    "hours": "Ověřte telefonicky",
    "phone": null,
    "website": null,
    "email": null,
    "products": [],
    "description": "Ekofarma Vohralík — Pardubický kraj.",
    "delivery": false,
    "eshop": false,
    "verified": false,
    "source": "manual"
  },
  {
    "id": 1204,
    "name": "Ekologická farma Ladislav Žítek",
    "loc": "Pardubický kraj",
    "type": "bio",
    "lat": 49.902791,
    "lng": 15.999232,
    "emoji": "🌱",
    "rating": 4,
    "open": null,
    "bio": true,
    "dist": "—",
    "hours": "Ověřte telefonicky",
    "phone": null,
    "website": null,
    "email": null,
    "products": [],
    "description": "Ekologická farma Ladislav Žítek — Pardubický kraj.",
    "delivery": false,
    "eshop": false,
    "verified": false,
    "source": "manual"
  },
  {
    "id": 1205,
    "name": "Farma Drahoš",
    "loc": "Dolní Újezd",
    "type": "veggie",
    "lat": 49.81991,
    "lng": 16.318281,
    "emoji": "🥕",
    "rating": 4,
    "open": null,
    "bio": false,
    "dist": "—",
    "hours": "Ověřte telefonicky",
    "phone": null,
    "website": null,
    "email": null,
    "products": [],
    "description": "Farma Drahoš — Dolní Újezd.",
    "delivery": false,
    "eshop": false,
    "verified": false,
    "source": "manual"
  },
  {
    "id": 1206,
    "name": "Rodinná farma Macek",
    "loc": "Pardubický kraj",
    "type": "veggie",
    "lat": 49.895048,
    "lng": 16.002099,
    "emoji": "🥕",
    "rating": 4,
    "open": null,
    "bio": false,
    "dist": "—",
    "hours": "Ověřte telefonicky",
    "phone": null,
    "website": null,
    "email": null,
    "products": [],
    "description": "Rodinná farma Macek — Pardubický kraj.",
    "delivery": false,
    "eshop": false,
    "verified": false,
    "source": "manual"
  },
  {
    "id": 1207,
    "name": "Farma Ovčárna Šanov",
    "loc": "Šanov",
    "type": "meat",
    "lat": 49.886066,
    "lng": 15.895094,
    "emoji": "🥩",
    "rating": 4,
    "open": null,
    "bio": false,
    "dist": "—",
    "hours": "Ověřte telefonicky",
    "phone": null,
    "website": null,
    "email": null,
    "products": [],
    "description": "Farma Ovčárna Šanov — Šanov.",
    "delivery": false,
    "eshop": false,
    "verified": false,
    "source": "manual"
  },
  {
    "id": 1208,
    "name": "Farma pod Kuňkou",
    "loc": "Ráby",
    "type": "dairy",
    "lat": 49.964984,
    "lng": 15.848745,
    "emoji": "🥛",
    "rating": 4,
    "open": null,
    "bio": false,
    "dist": "—",
    "hours": "Ověřte telefonicky",
    "phone": null,
    "website": null,
    "email": null,
    "products": [],
    "description": "Farma pod Kuňkou — Ráby.",
    "delivery": false,
    "eshop": false,
    "verified": false,
    "source": "manual"
  },
  {
    "id": 1209,
    "name": "Včelí farma Novák",
    "loc": "Česká Třebová",
    "type": "honey",
    "lat": 49.904188,
    "lng": 16.457566,
    "emoji": "🍯",
    "rating": 4,
    "open": null,
    "bio": false,
    "dist": "—",
    "hours": "Ověřte telefonicky",
    "phone": null,
    "website": null,
    "email": null,
    "products": [],
    "description": "Včelí farma Novák — Česká Třebová.",
    "delivery": false,
    "eshop": false,
    "verified": false,
    "source": "manual"
  },
  {
    "id": 1210,
    "name": "Vinařství U Samson",
    "loc": "Pardubický kraj",
    "type": "wine",
    "lat": 49.912305,
    "lng": 16.008798,
    "emoji": "🍷",
    "rating": 4,
    "open": null,
    "bio": false,
    "dist": "—",
    "hours": "Ověřte telefonicky",
    "phone": null,
    "website": null,
    "email": null,
    "products": [],
    "description": "Vinařství U Samson — Pardubický kraj.",
    "delivery": false,
    "eshop": false,
    "verified": false,
    "source": "manual"
  },
  {
    "id": 1211,
    "name": "Farma Bylinka",
    "loc": "Pardubický kraj",
    "type": "herbs",
    "lat": 49.908294,
    "lng": 15.991947,
    "emoji": "🌿",
    "rating": 4,
    "open": null,
    "bio": false,
    "dist": "—",
    "hours": "Ověřte telefonicky",
    "phone": null,
    "website": null,
    "email": null,
    "products": [],
    "description": "Farma Bylinka — Pardubický kraj.",
    "delivery": false,
    "eshop": false,
    "verified": false,
    "source": "manual"
  },
  {
    "id": 1212,
    "name": "Statek Uhersko",
    "loc": "Pardubice",
    "type": "market",
    "lat": 50.038031,
    "lng": 15.792238,
    "emoji": "🛒",
    "rating": 4,
    "open": null,
    "bio": false,
    "dist": "—",
    "hours": "Ověřte telefonicky",
    "phone": null,
    "website": null,
    "email": null,
    "products": [],
    "description": "Statek Uhersko — Pardubice.",
    "delivery": false,
    "eshop": false,
    "verified": false,
    "source": "manual"
  },
  {
    "id": 1213,
    "name": "Rodinná farma Částkov",
    "loc": "Pardubický kraj",
    "type": "zerowaste",
    "lat": 49.918877,
    "lng": 15.98856,
    "emoji": "♻️",
    "rating": 4,
    "open": null,
    "bio": false,
    "dist": "—",
    "hours": "Ověřte telefonicky",
    "phone": null,
    "website": null,
    "email": null,
    "products": [],
    "description": "Rodinná farma Částkov — Pardubický kraj.",
    "delivery": false,
    "eshop": false,
    "verified": false,
    "source": "manual"
  },
  {
    "id": 1214,
    "name": "Farma Slunečný Dvůr",
    "loc": "Morašice-Holičky",
    "type": "agro",
    "lat": 49.933597,
    "lng": 16.020264,
    "emoji": "🏡",
    "rating": 4,
    "open": null,
    "bio": false,
    "dist": "—",
    "hours": "Ověřte telefonicky",
    "phone": null,
    "website": null,
    "email": null,
    "products": [],
    "description": "Farma Slunečný Dvůr — Morašice-Holičky.",
    "delivery": false,
    "eshop": false,
    "verified": false,
    "source": "manual"
  },
  {
    "id": 1215,
    "name": "Květná Zahrada Kunvald",
    "loc": "Kunvald",
    "type": "agro",
    "lat": 50.03799,
    "lng": 16.550521,
    "emoji": "🏡",
    "rating": 4,
    "open": null,
    "bio": false,
    "dist": "—",
    "hours": "Ověřte telefonicky",
    "phone": null,
    "website": null,
    "email": null,
    "products": [],
    "description": "Květná Zahrada Kunvald — Kunvald.",
    "delivery": false,
    "eshop": false,
    "verified": false,
    "source": "manual"
  }
]